{
  "mechanical_engineering": [
    {
      "name": "Massachusetts Institute of Technology",
      "address": "77 Massachusetts Ave, Cambridge, MA 02139",
      "latitude": 42.3601,
      "longitude": -71.0942,
      "state": "MA",
      "in_state_tuition": 57786,
      "out_of_state_tuition": 57786,
      "in_state_total_cost": 79546,
      "out_of_state_total_cost": 79546,
      "expected_earnings_after_graduation": 104600
    },
    {
      "name": "Stanford University",
      "address": "450 Serra Mall, Stanford, CA 94305",
      "latitude": 37.4275,
      "longitude": -122.1697,
      "state": "CA",
      "in_state_tuition": 56169,
      "out_of_state_tuition": 56169,
      "in_state_total_cost": 78598,
      "out_of_state_total_cost": 78598,
      "expected_earnings_after_graduation": 102800
    },
    {
      "name": "University of California, Berkeley",
      "address": "2000 Carleton St, Berkeley, CA 94720",
      "latitude": 37.8719,
      "longitude": -122.2585,
      "state": "CA",
      "in_state_tuition": 14254,
      "out_of_state_tuition": 44210,
      "in_state_total_cost": 41528,
      "out_of_state_total_cost": 71484,
      "expected_earnings_after_graduation": 89500
    },
    {
      "name": "Georgia Institute of Technology",
      "address": "225 North Ave NW, Atlanta, GA 30332",
      "latitude": 33.7756,
      "longitude": -84.3963,
      "state": "GA",
      "in_state_tuition": 12082,
      "out_of_state_tuition": 33794,
      "in_state_total_cost": 30504,
      "out_of_state_total_cost": 52216,
      "expected_earnings_after_graduation": 82000
    },
    {
      "name": "University of Michigan, Ann Arbor",
      "address": "500 S State St, Ann Arbor, MI 48109",
      "latitude": 42.2780,
      "longitude": -83.7382,
      "state": "MI",
      "in_state_tuition": 16836,
      "out_of_state_tuition": 55002,
      "in_state_total_cost": 32766,
      "out_of_state_total_cost": 70932,
      "expected_earnings_after_graduation": 81000
    },
    {
      "name": "University of Illinois, Urbana-Champaign",
      "address": "601 E John St, Champaign, IL 61820",
      "latitude": 40.1020,
      "longitude": -88.2272,
      "state": "IL",
      "in_state_tuition": 16766,
      "out_of_state_tuition": 36786,
      "in_state_total_cost": 32196,
      "out_of_state_total_cost": 52216,
      "expected_earnings_after_graduation": 78000
    },
    {
      "name": "Purdue University",
      "address": "610 Purdue Mall, West Lafayette, IN 47907",
      "latitude": 40.4237,
      "longitude": -86.9212,
      "state": "IN",
      "in_state_tuition": 9992,
      "out_of_state_tuition": 28794,
      "in_state_total_cost": 23196,
      "out_of_state_total_cost": 41998,
      "expected_earnings_after_graduation": 75000
    },
    {
      "name": "Carnegie Mellon University",
      "address": "5000 Forbes Ave, Pittsburgh, PA 15213",
      "latitude": 40.4428,
      "longitude": -79.9428,
      "state": "PA",
      "in_state_tuition": 58624,
      "out_of_state_tuition": 58624,
      "in_state_total_cost": 78474,
      "out_of_state_total_cost": 78474,
      "expected_earnings_after_graduation": 95000
    },
    {
      "name": "University of Texas, Austin",
      "address": "110 Inner Campus Dr, Austin, TX 78712",
      "latitude": 30.2849,
      "longitude": -97.7341,
      "state": "TX",
      "in_state_tuition": 11448,
      "out_of_state_tuition": 39576,
      "in_state_total_cost": 28448,
      "out_of_state_total_cost": 56576,
      "expected_earnings_after_graduation": 72000
    },
    {
      "name": "Cornell University",
      "address": "Cornell University, Ithaca, NY 14853",
      "latitude": 42.4489,
      "longitude": -76.4764,
      "state": "NY",
      "in_state_tuition": 61888,
      "out_of_state_tuition": 61888,
      "in_state_total_cost": 83888,
      "out_of_state_total_cost": 83888,
      "expected_earnings_after_graduation": 88000
    },
    {
      "name": "University of Wisconsin, Madison",
      "address": "702 W Johnson St, Madison, WI 53715",
      "latitude": 43.0731,
      "longitude": -89.4012,
      "state": "WI",
      "in_state_tuition": 10720,
      "out_of_state_tuition": 38608,
      "in_state_total_cost": 27120,
      "out_of_state_total_cost": 55008,
      "expected_earnings_after_graduation": 70000
    },
    {
      "name": "Virginia Tech",
      "address": "800 Drillfield Dr, Blacksburg, VA 24061",
      "latitude": 37.2296,
      "longitude": -80.4139,
      "state": "VA",
      "in_state_tuition": 13925,
      "out_of_state_tuition": 33235,
      "in_state_total_cost": 29325,
      "out_of_state_total_cost": 48635,
      "expected_earnings_after_graduation": 68000
    },
    {
      "name": "University of California, San Diego",
      "address": "9500 Gilman Dr, La Jolla, CA 92093",
      "latitude": 32.8801,
      "longitude": -117.2340,
      "state": "CA",
      "in_state_tuition": 14254,
      "out_of_state_tuition": 44210,
      "in_state_total_cost": 41528,
      "out_of_state_total_cost": 71484,
      "expected_earnings_after_graduation": 75000
    },
    {
      "name": "University of Maryland, College Park",
      "address": "College Park, MD 20742",
      "latitude": 38.9897,
      "longitude": -76.9378,
      "state": "MD",
      "in_state_tuition": 10779,
      "out_of_state_tuition": 38610,
      "in_state_total_cost": 27179,
      "out_of_state_total_cost": 55010,
      "expected_earnings_after_graduation": 72000
    },
    {
      "name": "University of Washington",
      "address": "Seattle, WA 98195",
      "latitude": 47.6062,
      "longitude": -122.3321,
      "state": "WA",
      "in_state_tuition": 12076,
      "out_of_state_tuition": 39892,
      "in_state_total_cost": 31076,
      "out_of_state_total_cost": 58892,
      "expected_earnings_after_graduation": 75000
    },
    {
      "name": "University of Pennsylvania",
      "address": "Philadelphia, PA 19104",
      "latitude": 39.9522,
      "longitude": -75.1932,
      "state": "PA",
      "in_state_tuition": 61710,
      "out_of_state_tuition": 61710,
      "in_state_total_cost": 83710,
      "out_of_state_total_cost": 83710,
      "expected_earnings_after_graduation": 92000
    },
    {
      "name": "University of California, Los Angeles",
      "address": "Los Angeles, CA 90095",
      "latitude": 34.0522,
      "longitude": -118.2437,
      "state": "CA",
      "in_state_tuition": 14254,
      "out_of_state_tuition": 44210,
      "in_state_total_cost": 41528,
      "out_of_state_total_cost": 71484,
      "expected_earnings_after_graduation": 78000
    },
    {
      "name": "Northwestern University",
      "address": "Evanston, IL 60208",
      "latitude": 42.0584,
      "longitude": -87.6769,
      "state": "IL",
      "in_state_tuition": 60484,
      "out_of_state_tuition": 60484,
      "in_state_total_cost": 82484,
      "out_of_state_total_cost": 82484,
      "expected_earnings_after_graduation": 85000
    },
    {
      "name": "University of Minnesota, Twin Cities",
      "address": "Minneapolis, MN 55455",
      "latitude": 44.9778,
      "longitude": -93.2650,
      "state": "MN",
      "in_state_tuition": 15253,
      "out_of_state_tuition": 33748,
      "in_state_total_cost": 31253,
      "out_of_state_total_cost": 48748,
      "expected_earnings_after_graduation": 68000
    },
    {
      "name": "University of Colorado, Boulder",
      "address": "Boulder, CO 80309",
      "latitude": 40.0150,
      "longitude": -105.2705,
      "state": "CO",
      "in_state_tuition": 12788,
      "out_of_state_tuition": 38766,
      "in_state_total_cost": 32788,
      "out_of_state_total_cost": 58766,
      "expected_earnings_after_graduation": 70000
    }
  ],
  "biomedical_engineering": [
    {
      "name": "Johns Hopkins University",
      "address": "3400 N Charles St, Baltimore, MD 21218",
      "latitude": 39.3299,
      "longitude": -76.6205,
      "state": "MD",
      "in_state_tuition": 58720,
      "out_of_state_tuition": 58720,
      "in_state_total_cost": 80720,
      "out_of_state_total_cost": 80720,
      "expected_earnings_after_graduation": 85000
    },
    {
      "name": "Georgia Institute of Technology",
      "address": "225 North Ave NW, Atlanta, GA 30332",
      "latitude": 33.7756,
      "longitude": -84.3963,
      "state": "GA",
      "in_state_tuition": 12082,
      "out_of_state_tuition": 33794,
      "in_state_total_cost": 30504,
      "out_of_state_total_cost": 52216,
      "expected_earnings_after_graduation": 78000
    },
    {
      "name": "Massachusetts Institute of Technology",
      "address": "77 Massachusetts Ave, Cambridge, MA 02139",
      "latitude": 42.3601,
      "longitude": -71.0942,
      "state": "MA",
      "in_state_tuition": 57786,
      "out_of_state_tuition": 57786,
      "in_state_total_cost": 79546,
      "out_of_state_total_cost": 79546,
      "expected_earnings_after_graduation": 95000
    },
    {
      "name": "Stanford University",
      "address": "450 Serra Mall, Stanford, CA 94305",
      "latitude": 37.4275,
      "longitude": -122.1697,
      "state": "CA",
      "in_state_tuition": 56169,
      "out_of_state_tuition": 56169,
      "in_state_total_cost": 78598,
      "out_of_state_total_cost": 78598,
      "expected_earnings_after_graduation": 92000
    },
    {
      "name": "University of California, San Diego",
      "address": "9500 Gilman Dr, La Jolla, CA 92093",
      "latitude": 32.8801,
      "longitude": -117.2340,
      "state": "CA",
      "in_state_tuition": 14254,
      "out_of_state_tuition": 44210,
      "in_state_total_cost": 41528,
      "out_of_state_total_cost": 71484,
      "expected_earnings_after_graduation": 75000
    },
    {
      "name": "University of Michigan, Ann Arbor",
      "address": "500 S State St, Ann Arbor, MI 48109",
      "latitude": 42.2780,
      "longitude": -83.7382,
      "state": "MI",
      "in_state_tuition": 16836,
      "out_of_state_tuition": 55002,
      "in_state_total_cost": 32766,
      "out_of_state_total_cost": 70932,
      "expected_earnings_after_graduation": 78000
    },
    {
      "name": "Duke University",
      "address": "Durham, NC 27708",
      "latitude": 36.0016,
      "longitude": -78.9382,
      "state": "NC",
      "in_state_tuition": 60435,
      "out_of_state_tuition": 60435,
      "in_state_total_cost": 82435,
      "out_of_state_total_cost": 82435,
      "expected_earnings_after_graduation": 85000
    },
    {
      "name": "University of Pennsylvania",
      "address": "Philadelphia, PA 19104",
      "latitude": 39.9522,
      "longitude": -75.1932,
      "state": "PA",
      "in_state_tuition": 61710,
      "out_of_state_tuition": 61710,
      "in_state_total_cost": 83710,
      "out_of_state_total_cost": 83710,
      "expected_earnings_after_graduation": 82000
    },
    {
      "name": "Rice University",
      "address": "Houston, TX 77005",
      "latitude": 29.7174,
      "longitude": -95.4018,
      "state": "TX",
      "in_state_tuition": 54100,
      "out_of_state_tuition": 54100,
      "in_state_total_cost": 76100,
      "out_of_state_total_cost": 76100,
      "expected_earnings_after_graduation": 75000
    },
    {
      "name": "University of Washington",
      "address": "Seattle, WA 98195",
      "latitude": 47.6062,
      "longitude": -122.3321,
      "state": "WA",
      "in_state_tuition": 12076,
      "out_of_state_tuition": 39892,
      "in_state_total_cost": 31076,
      "out_of_state_total_cost": 58892,
      "expected_earnings_after_graduation": 72000
    },
    {
      "name": "University of California, Berkeley",
      "address": "2000 Carleton St, Berkeley, CA 94720",
      "latitude": 37.8719,
      "longitude": -122.2585,
      "state": "CA",
      "in_state_tuition": 14254,
      "out_of_state_tuition": 44210,
      "in_state_total_cost": 41528,
      "out_of_state_total_cost": 71484,
      "expected_earnings_after_graduation": 78000
    },
    {
      "name": "University of Illinois, Urbana-Champaign",
      "address": "601 E John St, Champaign, IL 61820",
      "latitude": 40.1020,
      "longitude": -88.2272,
      "state": "IL",
      "in_state_tuition": 16766,
      "out_of_state_tuition": 36786,
      "in_state_total_cost": 32196,
      "out_of_state_total_cost": 52216,
      "expected_earnings_after_graduation": 72000
    },
    {
      "name": "University of Virginia",
      "address": "Charlottesville, VA 22903",
      "latitude": 38.0336,
      "longitude": -78.5080,
      "state": "VA",
      "in_state_tuition": 19785,
      "out_of_state_tuition": 54879,
      "in_state_total_cost": 35785,
      "out_of_state_total_cost": 70879,
      "expected_earnings_after_graduation": 70000
    },
    {
      "name": "University of Wisconsin, Madison",
      "address": "702 W Johnson St, Madison, WI 53715",
      "latitude": 43.0731,
      "longitude": -89.4012,
      "state": "WI",
      "in_state_tuition": 10720,
      "out_of_state_tuition": 38608,
      "in_state_total_cost": 27120,
      "out_of_state_total_cost": 55008,
      "expected_earnings_after_graduation": 68000
    },
    {
      "name": "University of Minnesota, Twin Cities",
      "address": "Minneapolis, MN 55455",
      "latitude": 44.9778,
      "longitude": -93.2650,
      "state": "MN",
      "in_state_tuition": 15253,
      "out_of_state_tuition": 33748,
      "in_state_total_cost": 31253,
      "out_of_state_total_cost": 48748,
      "expected_earnings_after_graduation": 65000
    },
    {
      "name": "University of Texas, Austin",
      "address": "110 Inner Campus Dr, Austin, TX 78712",
      "latitude": 30.2849,
      "longitude": -97.7341,
      "state": "TX",
      "in_state_tuition": 11448,
      "out_of_state_tuition": 39576,
      "in_state_total_cost": 28448,
      "out_of_state_total_cost": 56576,
      "expected_earnings_after_graduation": 68000
    },
    {
      "name": "University of Pittsburgh",
      "address": "Pittsburgh, PA 15260",
      "latitude": 40.4406,
      "longitude": -79.9959,
      "state": "PA",
      "in_state_tuition": 19960,
      "out_of_state_tuition": 35458,
      "in_state_total_cost": 35960,
      "out_of_state_total_cost": 51458,
      "expected_earnings_after_graduation": 65000
    },
    {
      "name": "University of California, Davis",
      "address": "Davis, CA 95616",
      "latitude": 38.5382,
      "longitude": -121.7617,
      "state": "CA",
      "in_state_tuition": 14254,
      "out_of_state_tuition": 44210,
      "in_state_total_cost": 41528,
      "out_of_state_total_cost": 71484,
      "expected_earnings_after_graduation": 70000
    },
    {
      "name": "University of Maryland, College Park",
      "address": "College Park, MD 20742",
      "latitude": 38.9897,
      "longitude": -76.9378,
      "state": "MD",
      "in_state_tuition": 10779,
      "out_of_state_tuition": 38610,
      "in_state_total_cost": 27179,
      "out_of_state_total_cost": 55010,
      "expected_earnings_after_graduation": 68000
    },
    {
      "name": "University of Florida",
      "address": "Gainesville, FL 32611",
      "latitude": 29.6516,
      "longitude": -82.3248,
      "state": "FL",
      "in_state_tuition": 6380,
      "out_of_state_tuition": 28658,
      "in_state_total_cost": 21380,
      "out_of_state_total_cost": 43658,
      "expected_earnings_after_graduation": 62000
    }
  ]
} 